{"LR920": {"stop": "LR920", "name_en": "Sam Shing", "name_tc": "三聖", "name_sc": "三聖", "lat": 22.382896795292606, "long": 113.97686052822115, "routes": [{"ID": "lr505O1", "i": 0}, {"ID": "lr505I1", "i": 13}]}, "LR265": {"stop": "LR265", "name_en": "Siu Lun", "name_tc": "兆麟", "name_sc": "兆麟", "lat": 22.38455620689523, "long": 113.97509085655973, "routes": [{"ID": "lr505O1", "i": 1}, {"ID": "lr505I1", "i": 12}, {"ID": "lr507O1", "i": 4}, {"ID": "lr507I1", "i": 12}, {"ID": "lr614PO1", "i": 4}, {"ID": "lr614PI1", "i": 8}, {"ID": "lr614O1", "i": 4}, {"ID": "lr614I1", "i": 19}]}, "LR270": {"stop": "LR270", "name_en": "On Ting", "name_tc": "安定", "name_sc": "安定", "lat": 22.38764460112864, "long": 113.97506698153236, "routes": [{"ID": "lr505O1", "i": 2}, {"ID": "lr505I1", "i": 11}, {"ID": "lr507O1", "i": 5}, {"ID": "lr507I1", "i": 11}, {"ID": "lr614PO1", "i": 5}, {"ID": "lr614PI1", "i": 7}, {"ID": "lr614O1", "i": 5}, {"ID": "lr614I1", "i": 18}, {"ID": "lr751O1", "i": 1}]}, "LR280": {"stop": "LR280", "name_en": "Town Centre", "name_tc": "市中心", "name_sc": "市中心", "lat": 22.392523000883312, "long": 113.97507800162772, "routes": [{"ID": "lr505O1", "i": 3}, {"ID": "lr505I1", "i": 10}, {"ID": "lr507O1", "i": 6}, {"ID": "lr507I1", "i": 10}, {"ID": "lr614PO1", "i": 6}, {"ID": "lr614PI1", "i": 6}, {"ID": "lr614O1", "i": 6}, {"ID": "lr614I1", "i": 17}, {"ID": "lr751O1", "i": 2}, {"ID": "lr751I1", "i": 20}]}, "LR295": {"stop": "LR295", "name_en": "Tuen Mun", "name_tc": "屯門", "name_sc": "屯門", "lat": 22.393792079396952, "long": 113.97325185235496, "routes": [{"ID": "lr505O1", "i": 4}, {"ID": "lr505I1", "i": 9}, {"ID": "lr507O1", "i": 7}, {"ID": "lr507I1", "i": 9}, {"ID": "lr751O1", "i": 3}, {"ID": "lr751I1", "i": 19}]}, "LR060": {"stop": "LR060", "name_en": "Kin On", "name_tc": "建安", "name_sc": "建安", "lat": 22.39513208123862, "long": 113.96889929678359, "routes": [{"ID": "lr505O1", "i": 5}, {"ID": "lr505I1", "i": 8}]}, "LR190": {"stop": "LR190", "name_en": "Shan King (South)", "name_tc": "山景(南)", "name_sc": "山景(南)", "lat": 22.396618332689506, "long": 113.96598370475486, "routes": [{"ID": "lr505O1", "i": 6}]}, "LR180": {"stop": "LR180", "name_en": "Shan King (North)", "name_tc": "山景(北)", "name_sc": "山景(北)", "lat": 22.398506530325808, "long": 113.9666218099157, "routes": [{"ID": "lr505O1", "i": 7}]}, "LR170": {"stop": "LR170", "name_en": "Shek Pai", "name_tc": "石排", "name_sc": "石排", "lat": 22.401379596705695, "long": 113.9676857661933, "routes": [{"ID": "lr505O1", "i": 8}, {"ID": "lr505I1", "i": 6}, {"ID": "lr615PI1", "i": 7}, {"ID": "lr615PO1", "i": 8}, {"ID": "lr610O1", "i": 8}, {"ID": "lr610I1", "i": 17}, {"ID": "lr615O1", "i": 8}, {"ID": "lr615I1", "i": 17}]}, "LR160": {"stop": "LR160", "name_en": "San Wai", "name_tc": "新圍", "name_sc": "新圍", "lat": 22.4052945526316, "long": 113.9644167181885, "routes": [{"ID": "lr505O1", "i": 9}, {"ID": "lr505I1", "i": 5}, {"ID": "lr507O1", "i": 13}, {"ID": "lr507I1", "i": 3}, {"ID": "lr615PI1", "i": 6}, {"ID": "lr615PO1", "i": 9}, {"ID": "lr615O1", "i": 9}, {"ID": "lr615I1", "i": 16}]}, "LR150": {"stop": "LR150", "name_en": "Leung King", "name_tc": "良景", "name_sc": "良景", "lat": 22.406693234379286, "long": 113.96362792267512, "routes": [{"ID": "lr505O1", "i": 10}, {"ID": "lr505I1", "i": 4}, {"ID": "lr507O1", "i": 14}, {"ID": "lr507I1", "i": 2}, {"ID": "lr615PI1", "i": 5}, {"ID": "lr615PO1", "i": 10}, {"ID": "lr615O1", "i": 10}, {"ID": "lr615I1", "i": 15}]}, "LR140": {"stop": "LR140", "name_en": "Tin King", "name_tc": "田景", "name_sc": "田景", "lat": 22.407708320766528, "long": 113.96643315428149, "routes": [{"ID": "lr505O1", "i": 11}, {"ID": "lr505I1", "i": 3}, {"ID": "lr507O1", "i": 15}, {"ID": "lr507I1", "i": 0}, {"ID": "lr615PI1", "i": 4}, {"ID": "lr615PO1", "i": 11}, {"ID": "lr615O1", "i": 11}, {"ID": "lr615I1", "i": 14}]}, "LR130": {"stop": "LR130", "name_en": "Kin Sang", "name_tc": "建生", "name_sc": "建生", "lat": 22.406727557470212, "long": 113.9691831199051, "routes": [{"ID": "lr505O1", "i": 12}, {"ID": "lr505I1", "i": 2}, {"ID": "lr615PI1", "i": 3}, {"ID": "lr615PO1", "i": 12}, {"ID": "lr615O1", "i": 12}, {"ID": "lr615I1", "i": 13}]}, "LR120": {"stop": "LR120", "name_en": "Ching Chung", "name_tc": "青松", "name_sc": "青松", "lat": 22.407291701920737, "long": 113.97252321517286, "routes": [{"ID": "lr505O1", "i": 13}, {"ID": "lr505I1", "i": 1}, {"ID": "lr615PI1", "i": 2}, {"ID": "lr615PO1", "i": 13}, {"ID": "lr615O1", "i": 13}, {"ID": "lr615I1", "i": 12}]}, "LR110": {"stop": "LR110", "name_en": "Kei Lun", "name_tc": "麒麟", "name_sc": "麒麟", "lat": 22.4109718816953, "long": 113.97634446999766, "routes": [{"ID": "lr505O1", "i": 14}, {"ID": "lr615PI1", "i": 1}, {"ID": "lr615PO1", "i": 14}]}, "LR100": {"stop": "LR100", "name_en": "Siu Hong", "name_tc": "兆康", "name_sc": "兆康", "lat": 22.4109718816953, "long": 113.97634446999766, "routes": [{"ID": "lr505O1", "i": 15}, {"ID": "lr505I1", "i": 0}, {"ID": "lr614PO1", "i": 12}, {"ID": "lr615PI1", "i": 0}, {"ID": "lr615PO1", "i": 15}, {"ID": "lr614PI1", "i": 0}, {"ID": "lr610O1", "i": 14}, {"ID": "lr610I1", "i": 11}, {"ID": "lr614O1", "i": 12}, {"ID": "lr614I1", "i": 11}, {"ID": "lr615O1", "i": 14}, {"ID": "lr615I1", "i": 11}, {"ID": "lr751O1", "i": 8}, {"ID": "lr751I1", "i": 14}]}, "LR200": {"stop": "LR200", "name_en": "Ming Kum", "name_tc": "鳴琴", "name_sc": "鳴琴", "lat": 22.39706259167839, "long": 113.96734261730681, "routes": [{"ID": "lr505I1", "i": 7}, {"ID": "lr615PI1", "i": 8}, {"ID": "lr615PO1", "i": 7}, {"ID": "lr610O1", "i": 7}, {"ID": "lr610I1", "i": 18}, {"ID": "lr615O1", "i": 7}, {"ID": "lr615I1", "i": 18}]}, "LR001": {"stop": "LR001", "name_en": "Tuen Mun Ferry Pier", "name_tc": "屯門碼頭", "name_sc": "屯門碼頭", "lat": 22.372715736781323, "long": 113.96711905642894, "routes": [{"ID": "lr507O1", "i": 0}, {"ID": "lr507I1", "i": 16}, {"ID": "lr614PO1", "i": 0}, {"ID": "lr615PI1", "i": 15}, {"ID": "lr615PO1", "i": 0}, {"ID": "lr614PI1", "i": 12}, {"ID": "lr610O1", "i": 0}, {"ID": "lr610I1", "i": 25}, {"ID": "lr614O1", "i": 0}, {"ID": "lr614I1", "i": 23}, {"ID": "lr615O1", "i": 0}, {"ID": "lr615I1", "i": 25}]}, "LR240": {"stop": "LR240", "name_en": "Siu Hei", "name_tc": "兆禧", "name_sc": "兆禧", "lat": 22.375244386587955, "long": 113.96689950689269, "routes": [{"ID": "lr507O1", "i": 1}, {"ID": "lr507I1", "i": 15}, {"ID": "lr614PO1", "i": 1}, {"ID": "lr614PI1", "i": 11}, {"ID": "lr614O1", "i": 1}, {"ID": "lr614I1", "i": 22}]}, "LR250": {"stop": "LR250", "name_en": "Tuen Mun Swimming Pool", "name_tc": "屯門泳池", "name_sc": "屯門泳池", "lat": 22.381163865806617, "long": 113.97040571993634, "routes": [{"ID": "lr507O1", "i": 2}, {"ID": "lr507I1", "i": 14}, {"ID": "lr614PO1", "i": 2}, {"ID": "lr614PI1", "i": 10}, {"ID": "lr614O1", "i": 2}, {"ID": "lr614I1", "i": 21}]}, "LR260": {"stop": "LR260", "name_en": "Goodview Garden", "name_tc": "豐景園", "name_sc": "豐景園", "lat": 22.383271239391625, "long": 113.97298556358197, "routes": [{"ID": "lr507O1", "i": 3}, {"ID": "lr507I1", "i": 13}, {"ID": "lr614PO1", "i": 3}, {"ID": "lr614PI1", "i": 9}, {"ID": "lr614O1", "i": 3}, {"ID": "lr614I1", "i": 20}]}, "LR070": {"stop": "LR070", "name_en": "Ho Tin", "name_tc": "河田", "name_sc": "河田", "lat": 22.397377021970236, "long": 113.9731300970236, "routes": [{"ID": "lr507O1", "i": 8}, {"ID": "lr507I1", "i": 8}, {"ID": "lr751O1", "i": 4}, {"ID": "lr751I1", "i": 18}]}, "LR075": {"stop": "LR075", "name_en": "Choy Yee Bridge", "name_tc": "蔡意橋", "name_sc": "蔡意橋", "lat": 22.399933944702195, "long": 113.97416550270245, "routes": [{"ID": "lr507O1", "i": 9}, {"ID": "lr507I1", "i": 7}, {"ID": "lr751O1", "i": 5}, {"ID": "lr751I1", "i": 17}]}, "LR230": {"stop": "LR230", "name_en": "Ngan Wai", "name_tc": "銀圍", "name_sc": "銀圍", "lat": 22.402391076829545, "long": 113.9748417577829, "routes": [{"ID": "lr507O1", "i": 10}, {"ID": "lr507I1", "i": 6}, {"ID": "lr610O1", "i": 11}, {"ID": "lr610I1", "i": 14}]}, "LR220": {"stop": "LR220", "name_en": "Tai Hing (South)", "name_tc": "大興(南)", "name_sc": "大興(南)", "lat": 22.402631195449295, "long": 113.97189876774848, "routes": [{"ID": "lr507O1", "i": 11}, {"ID": "lr507I1", "i": 5}, {"ID": "lr610O1", "i": 10}, {"ID": "lr610I1", "i": 15}]}, "LR212": {"stop": "LR212", "name_en": "Tai Hing (North)", "name_tc": "大興(北)", "name_sc": "大興(北)", "lat": 22.404597395026066, "long": 113.9699826546772, "routes": [{"ID": "lr507O1", "i": 12}, {"ID": "lr507I1", "i": 4}, {"ID": "lr610O1", "i": 9}, {"ID": "lr610I1", "i": 16}]}, "LR300": {"stop": "LR300", "name_en": "Pui To", "name_tc": "杯渡", "name_sc": "杯渡", "lat": 22.39460925563623, "long": 113.97680493875542, "routes": [{"ID": "lr614PO1", "i": 7}, {"ID": "lr614PI1", "i": 5}, {"ID": "lr614O1", "i": 7}, {"ID": "lr614I1", "i": 16}]}, "LR310": {"stop": "LR310", "name_en": "Hoh Fuk Tong", "name_tc": "何福堂", "name_sc": "何福堂", "lat": 22.397373318065263, "long": 113.97740308710061, "routes": [{"ID": "lr614PO1", "i": 8}, {"ID": "lr614PI1", "i": 4}, {"ID": "lr614O1", "i": 8}, {"ID": "lr614I1", "i": 15}]}, "LR320": {"stop": "LR320", "name_en": "San Hui", "name_tc": "新墟", "name_sc": "新墟", "lat": 22.400218699325897, "long": 113.97803998909862, "routes": [{"ID": "lr614PO1", "i": 9}, {"ID": "lr614PI1", "i": 3}, {"ID": "lr614O1", "i": 9}, {"ID": "lr614I1", "i": 14}]}, "LR330": {"stop": "LR330", "name_en": "Prime View", "name_tc": "景峰", "name_sc": "景峰", "lat": 22.403128300118823, "long": 113.97950232257847, "routes": [{"ID": "lr614PO1", "i": 10}, {"ID": "lr614PI1", "i": 2}, {"ID": "lr614O1", "i": 10}, {"ID": "lr614I1", "i": 13}]}, "LR340": {"stop": "LR340", "name_en": "Fung Tei", "name_tc": "鳳地", "name_sc": "鳳地", "lat": 22.406739551471585, "long": 113.97873968939199, "routes": [{"ID": "lr614PO1", "i": 11}, {"ID": "lr614PI1", "i": 1}, {"ID": "lr614O1", "i": 11}, {"ID": "lr614I1", "i": 12}]}, "LR050": {"stop": "LR050", "name_en": "Tsing Wun", "name_tc": "青雲", "name_sc": "青雲", "lat": 22.394344502234674, "long": 113.96740495611952, "routes": [{"ID": "lr615PI1", "i": 9}, {"ID": "lr615PO1", "i": 6}, {"ID": "lr610O1", "i": 6}, {"ID": "lr610I1", "i": 19}, {"ID": "lr615O1", "i": 6}, {"ID": "lr615I1", "i": 19}]}, "LR040": {"stop": "LR040", "name_en": "Tsing Shan Tsuen", "name_tc": "青山村", "name_sc": "青山村", "lat": 22.390397615715738, "long": 113.96696416772295, "routes": [{"ID": "lr615PI1", "i": 10}, {"ID": "lr615PO1", "i": 5}, {"ID": "lr610O1", "i": 5}, {"ID": "lr610I1", "i": 20}, {"ID": "lr615O1", "i": 5}, {"ID": "lr615I1", "i": 20}]}, "LR030": {"stop": "LR030", "name_en": "Lung Mun", "name_tc": "龍門", "name_sc": "龍門", "lat": 22.38525669109853, "long": 113.96498123133733, "routes": [{"ID": "lr615PI1", "i": 11}, {"ID": "lr615PO1", "i": 4}, {"ID": "lr610O1", "i": 4}, {"ID": "lr610I1", "i": 21}, {"ID": "lr615O1", "i": 4}, {"ID": "lr615I1", "i": 21}]}, "LR020": {"stop": "LR020", "name_en": "Light Rail Depot", "name_tc": "輕鐵車廠", "name_sc": "輕鐵車廠", "lat": 22.381045732516558, "long": 113.96425740075702, "routes": [{"ID": "lr615PI1", "i": 12}, {"ID": "lr615PO1", "i": 3}, {"ID": "lr610O1", "i": 3}, {"ID": "lr610I1", "i": 22}, {"ID": "lr615O1", "i": 3}, {"ID": "lr615I1", "i": 22}]}, "LR015": {"stop": "LR015", "name_en": "Butterfly", "name_tc": "蝴蝶", "name_sc": "蝴蝶", "lat": 22.378172413936614, "long": 113.96166142987488, "routes": [{"ID": "lr615PI1", "i": 13}, {"ID": "lr615PO1", "i": 2}, {"ID": "lr610O1", "i": 2}, {"ID": "lr610I1", "i": 23}, {"ID": "lr615O1", "i": 2}, {"ID": "lr615I1", "i": 23}]}, "LR010": {"stop": "LR010", "name_en": "Melody Garden", "name_tc": "美樂", "name_sc": "美樂", "lat": 22.375047135834606, "long": 113.96111277735613, "routes": [{"ID": "lr615PI1", "i": 14}, {"ID": "lr615PO1", "i": 1}, {"ID": "lr610O1", "i": 1}, {"ID": "lr610I1", "i": 24}, {"ID": "lr615O1", "i": 1}, {"ID": "lr615I1", "i": 24}]}, "LR080": {"stop": "LR080", "name_en": "Affluence", "name_tc": "澤豐", "name_sc": "澤豐", "lat": 22.40349409818214, "long": 113.97588903328008, "routes": [{"ID": "lr610O1", "i": 12}, {"ID": "lr610I1", "i": 13}, {"ID": "lr751O1", "i": 6}, {"ID": "lr751I1", "i": 16}]}, "LR090": {"stop": "LR090", "name_en": "Tuen Mun Hospital", "name_tc": "屯門醫院", "name_sc": "屯門醫院", "lat": 22.40776706197345, "long": 113.97714545636507, "routes": [{"ID": "lr610O1", "i": 13}, {"ID": "lr610I1", "i": 12}, {"ID": "lr751O1", "i": 7}, {"ID": "lr751I1", "i": 15}]}, "LR350": {"stop": "LR350", "name_en": "Lam Tei", "name_tc": "藍地", "name_sc": "藍地", "lat": 22.418500713608093, "long": 113.98162713994633, "routes": [{"ID": "lr610O1", "i": 15}, {"ID": "lr610I1", "i": 10}, {"ID": "lr614O1", "i": 13}, {"ID": "lr614I1", "i": 10}, {"ID": "lr615O1", "i": 15}, {"ID": "lr615I1", "i": 10}, {"ID": "lr751O1", "i": 9}, {"ID": "lr751I1", "i": 13}]}, "LR360": {"stop": "LR360", "name_en": "Nai Wai", "name_tc": "泥圍", "name_sc": "泥圍", "lat": 22.4236536700453, "long": 113.98632110613181, "routes": [{"ID": "lr610O1", "i": 16}, {"ID": "lr610I1", "i": 9}, {"ID": "lr614O1", "i": 14}, {"ID": "lr614I1", "i": 9}, {"ID": "lr615O1", "i": 16}, {"ID": "lr615I1", "i": 9}, {"ID": "lr751O1", "i": 10}, {"ID": "lr751I1", "i": 12}]}, "LR370": {"stop": "LR370", "name_en": "Chung Uk Tsuen", "name_tc": "鍾屋村", "name_sc": "鍾屋村", "lat": 22.429656741450405, "long": 113.99222848403858, "routes": [{"ID": "lr610O1", "i": 17}, {"ID": "lr610I1", "i": 8}, {"ID": "lr614O1", "i": 15}, {"ID": "lr614I1", "i": 8}, {"ID": "lr615O1", "i": 17}, {"ID": "lr615I1", "i": 8}, {"ID": "lr751O1", "i": 11}, {"ID": "lr751I1", "i": 11}]}, "LR380": {"stop": "LR380", "name_en": "Hung Shui Kiu", "name_tc": "洪水橋", "name_sc": "洪水橋", "lat": 22.429656741450405, "long": 113.99222848403858, "routes": [{"ID": "lr610O1", "i": 18}, {"ID": "lr610I1", "i": 7}, {"ID": "lr614O1", "i": 16}, {"ID": "lr614I1", "i": 7}, {"ID": "lr615O1", "i": 18}, {"ID": "lr615I1", "i": 7}, {"ID": "lr751O1", "i": 12}, {"ID": "lr751I1", "i": 10}]}, "LR390": {"stop": "LR390", "name_en": "Tong Fong Tsuen", "name_tc": "塘坊村", "name_sc": "塘坊村", "lat": 22.4401121753923, "long": 114.00703869141086, "routes": [{"ID": "lr610O1", "i": 19}, {"ID": "lr610I1", "i": 6}, {"ID": "lr614O1", "i": 17}, {"ID": "lr614I1", "i": 6}, {"ID": "lr615O1", "i": 19}, {"ID": "lr615I1", "i": 6}, {"ID": "lr761PO1", "i": 7}, {"ID": "lr761PI1", "i": 6}]}, "LR400": {"stop": "LR400", "name_en": "Ping Shan", "name_tc": "屏山", "name_sc": "屏山", "lat": 22.442817167150984, "long": 114.01175664754192, "routes": [{"ID": "lr610O1", "i": 20}, {"ID": "lr610I1", "i": 5}, {"ID": "lr614O1", "i": 18}, {"ID": "lr614I1", "i": 5}, {"ID": "lr615O1", "i": 20}, {"ID": "lr615I1", "i": 5}, {"ID": "lr761PO1", "i": 8}, {"ID": "lr761PI1", "i": 5}]}, "LR560": {"stop": "LR560", "name_en": "Shui Pin Wai", "name_tc": "水邊圍", "name_sc": "水邊圍", "lat": 22.444460329869287, "long": 114.02044928748805, "routes": [{"ID": "lr610O1", "i": 21}, {"ID": "lr610I1", "i": 4}, {"ID": "lr614O1", "i": 19}, {"ID": "lr614I1", "i": 4}, {"ID": "lr615O1", "i": 21}, {"ID": "lr615I1", "i": 4}, {"ID": "lr761PO1", "i": 9}, {"ID": "lr761PI1", "i": 4}]}, "LR570": {"stop": "LR570", "name_en": "Fung Nin Road", "name_tc": "豐年路", "name_sc": "豐年路", "lat": 22.444472664390812, "long": 114.02389796461097, "routes": [{"ID": "lr610O1", "i": 22}, {"ID": "lr610I1", "i": 3}, {"ID": "lr614O1", "i": 20}, {"ID": "lr614I1", "i": 3}, {"ID": "lr615O1", "i": 22}, {"ID": "lr615I1", "i": 3}, {"ID": "lr761PO1", "i": 10}, {"ID": "lr761PI1", "i": 3}]}, "LR580": {"stop": "LR580", "name_en": "Hong Lok Road", "name_tc": "康樂路", "name_sc": "康樂路", "lat": 22.444547452819883, "long": 114.02660826399722, "routes": [{"ID": "lr610O1", "i": 23}, {"ID": "lr610I1", "i": 2}, {"ID": "lr614O1", "i": 21}, {"ID": "lr614I1", "i": 2}, {"ID": "lr615O1", "i": 23}, {"ID": "lr615I1", "i": 2}, {"ID": "lr761PO1", "i": 11}, {"ID": "lr761PI1", "i": 2}]}, "LR590": {"stop": "LR590", "name_en": "Tai Tong Road", "name_tc": "大棠路", "name_sc": "大棠路", "lat": 22.444522541125732, "long": 114.02896894535624, "routes": [{"ID": "lr610O1", "i": 24}, {"ID": "lr610I1", "i": 1}, {"ID": "lr614O1", "i": 22}, {"ID": "lr614I1", "i": 1}, {"ID": "lr615O1", "i": 24}, {"ID": "lr615I1", "i": 1}, {"ID": "lr761PO1", "i": 12}, {"ID": "lr761PI1", "i": 1}]}, "LR600": {"stop": "LR600", "name_en": "Yuen Long", "name_tc": "元朗", "name_sc": "元朗", "lat": 22.442817167150984, "long": 114.01175664754192, "routes": [{"ID": "lr610O1", "i": 25}, {"ID": "lr610I1", "i": 0}, {"ID": "lr614O1", "i": 23}, {"ID": "lr614I1", "i": 0}, {"ID": "lr615O1", "i": 25}, {"ID": "lr615I1", "i": 0}, {"ID": "lr761PO1", "i": 13}, {"ID": "lr761PI1", "i": 0}]}, "LR430": {"stop": "LR430", "name_en": "Tin Shui Wai", "name_tc": "天水圍", "name_sc": "天水圍", "lat": 22.459718175710158, "long": 113.99953374582196, "routes": [{"ID": "lr705O1", "i": 0}, {"ID": "lr705I1", "i": 11}, {"ID": "lr706O1", "i": 0}, {"ID": "lr706I1", "i": 4}, {"ID": "lr751O1", "i": 14}, {"ID": "lr751I1", "i": 8}]}, "LR435": {"stop": "LR435", "name_en": "Tin Tsz", "name_tc": "天慈", "name_sc": "天慈", "lat": 22.45269951468239, "long": 114.00602270273374, "routes": [{"ID": "lr705O1", "i": 1}, {"ID": "lr706I1", "i": 3}, {"ID": "lr751O1", "i": 15}, {"ID": "lr751I1", "i": 7}]}, "LR450": {"stop": "LR450", "name_en": "Tin Wu", "name_tc": "天湖", "name_sc": "天湖", "lat": 22.45499296970105, "long": 114.00576729389473, "routes": [{"ID": "lr705O1", "i": 2}, {"ID": "lr706I1", "i": 2}, {"ID": "lr751O1", "i": 16}, {"ID": "lr751I1", "i": 6}]}, "LR455": {"stop": "LR455", "name_en": "Ginza", "name_tc": "銀座", "name_sc": "銀座", "lat": 22.457556674199466, "long": 114.00488975045184, "routes": [{"ID": "lr705O1", "i": 3}, {"ID": "lr706I1", "i": 1}, {"ID": "lr751O1", "i": 17}, {"ID": "lr751I1", "i": 5}]}, "LR500": {"stop": "LR500", "name_en": "Tin Wing", "name_tc": "天榮", "name_sc": "天榮", "lat": 22.459703081445706, "long": 114.00225415430876, "routes": [{"ID": "lr705O1", "i": 4}, {"ID": "lr705I1", "i": 0}, {"ID": "lr706O1", "i": 11}, {"ID": "lr706I1", "i": 0}, {"ID": "lr751O1", "i": 18}, {"ID": "lr751I1", "i": 4}]}, "LR510": {"stop": "LR510", "name_en": "Tin Yuet", "name_tc": "天悅", "name_sc": "天悅", "lat": 22.46281781932605, "long": 114.00156042431013, "routes": [{"ID": "lr705I1", "i": 1}, {"ID": "lr706O1", "i": 10}]}, "LR520": {"stop": "LR520", "name_en": "Tin Sau", "name_tc": "天秀", "name_sc": "天秀", "lat": 22.4655465218602, "long": 114.00296582439329, "routes": [{"ID": "lr705I1", "i": 2}, {"ID": "lr706O1", "i": 9}]}, "LR530": {"stop": "LR530", "name_en": "Wetland Park", "name_tc": "濕地公園", "name_sc": "濕地公園", "lat": 22.469600620221765, "long": 114.0024555141983, "routes": [{"ID": "lr705I1", "i": 3}, {"ID": "lr706O1", "i": 8}]}, "LR540": {"stop": "LR540", "name_en": "Tin Heng", "name_tc": "天恒", "name_sc": "天恒", "lat": 22.469661996157782, "long": 114.00076478888246, "routes": [{"ID": "lr705I1", "i": 4}, {"ID": "lr706O1", "i": 7}]}, "LR550": {"stop": "LR550", "name_en": "Tin Yat", "name_tc": "天逸", "name_sc": "天逸", "lat": 22.46696881925144, "long": 113.9988346720451, "routes": [{"ID": "lr705I1", "i": 5}, {"ID": "lr706O1", "i": 6}, {"ID": "lr751O1", "i": 22}, {"ID": "lr751I1", "i": 0}, {"ID": "lr761PO1", "i": 0}, {"ID": "lr761PI1", "i": 13}]}, "LR480": {"stop": "LR480", "name_en": "Tin Fu", "name_tc": "天富", "name_sc": "天富", "lat": 22.46453838677036, "long": 113.99770100327999, "routes": [{"ID": "lr705I1", "i": 6}, {"ID": "lr706O1", "i": 5}, {"ID": "lr751O1", "i": 21}, {"ID": "lr751I1", "i": 1}, {"ID": "lr761PO1", "i": 1}, {"ID": "lr761PI1", "i": 12}]}, "LR468": {"stop": "LR468", "name_en": "Chung Fu", "name_tc": "頌富", "name_sc": "頌富", "lat": 22.462027106127675, "long": 113.99695611181562, "routes": [{"ID": "lr705I1", "i": 7}, {"ID": "lr706O1", "i": 4}, {"ID": "lr751O1", "i": 20}, {"ID": "lr751I1", "i": 2}, {"ID": "lr761PO1", "i": 2}, {"ID": "lr761PI1", "i": 11}]}, "LR460": {"stop": "LR460", "name_en": "Tin Shui", "name_tc": "天瑞", "name_sc": "天瑞", "lat": 22.45591626138348, "long": 113.99943171187486, "routes": [{"ID": "lr705I1", "i": 8}, {"ID": "lr706O1", "i": 3}, {"ID": "lr761PO1", "i": 3}, {"ID": "lr761PI1", "i": 10}]}, "LR448": {"stop": "LR448", "name_en": "Locwood", "name_tc": "樂湖", "name_sc": "樂湖", "lat": 22.453037360259607, "long": 114.00107724570323, "routes": [{"ID": "lr705I1", "i": 9}, {"ID": "lr706O1", "i": 2}, {"ID": "lr761PO1", "i": 4}, {"ID": "lr761PI1", "i": 9}]}, "LR445": {"stop": "LR445", "name_en": "Tin Yiu", "name_tc": "天耀", "name_sc": "天耀", "lat": 22.450384148644236, "long": 114.00267385431829, "routes": [{"ID": "lr705I1", "i": 10}, {"ID": "lr706O1", "i": 1}, {"ID": "lr761PO1", "i": 5}, {"ID": "lr761PI1", "i": 8}]}, "LR275": {"stop": "LR275", "name_en": "Yau Oi", "name_tc": "友愛", "name_sc": "友愛", "lat": 22.386721560785183, "long": 113.97352432922607, "routes": [{"ID": "lr751O1", "i": 0}, {"ID": "lr751I1", "i": 21}]}, "LR425": {"stop": "LR425", "name_en": "Hang Mei Tsuen", "name_tc": "坑尾村", "name_sc": "坑尾村", "lat": 22.44508634420878, "long": 114.00552686482459, "routes": [{"ID": "lr751O1", "i": 13}, {"ID": "lr751I1", "i": 9}, {"ID": "lr761PO1", "i": 6}, {"ID": "lr761PI1", "i": 7}]}, "LR490": {"stop": "LR490", "name_en": "Chestwood", "name_tc": "翠湖", "name_sc": "翠湖", "lat": 22.459718175710158, "long": 113.99953374582196, "routes": [{"ID": "lr751O1", "i": 19}, {"ID": "lr751I1", "i": 3}]}}